,path,flow,ID,node,IATA,name,lon,lat
0,"(1, 1, 1)",0.0659253,10397,29,ATL,Hartsfield Jackson Atlanta International Airport,-84.428101,33.6367
1,"(1, 1, 2)",0.0453348,13930,318,ORD,Chicago O'Hare International Airport,-87.9048,41.9786
2,"(1, 1, 3)",0.0436713,11292,115,DEN,Denver International Airport,-104.672996521,39.861698150635
3,"(1, 1, 4)",0.042582,11298,116,DFW,Dallas Fort Worth International Airport,-97.038002,32.896801
4,"(1, 1, 5)",0.0403598,11057,91,CLT,Charlotte Douglas International Airport,-80.94309997558594,35.2140007019043
5,"(1, 1, 6)",0.031698000000000004,14107,332,PHX,Phoenix Sky Harbor International Airport,-112.01200103759766,33.43429946899414
6,"(1, 1, 7)",0.028363299999999998,12892,239,LAX,Los Angeles International Airport,-118.40799709999999,33.94250107
7,"(1, 1, 8)",0.025454499999999998,12266,204,IAH,George Bush Intercontinental Houston Airport,-95.34140014648438,29.98439979553223
8,"(1, 1, 9)",0.0245333,13487,302,MSP,Minneapolis-St Paul International/Wold-Chamberlain Airport,-93.221802,44.882
9,"(1, 1, 10)",0.0239723,11433,124,DTW,Detroit Metropolitan Wayne County Airport,-83.35340118408203,42.212398529052734
10,"(1, 1, 11)",0.0225488,14100,331,PHL,Philadelphia International Airport,-75.24109649658203,39.87189865112305
11,"(1, 1, 12)",0.0219451,12889,237,LAS,McCarran International Airport,-115.15200039999999,36.08010101
12,"(1, 1, 13)",0.0205194,14771,387,SFO,San Francisco International Airport,-122.375,37.61899948120117
13,"(1, 1, 14)",0.019584099999999997,13204,272,MCO,Orlando International Airport,-81.30899810791016,28.429399490356445
14,"(1, 1, 15)",0.0190001,14747,385,SEA,Seattle Tacoma International Airport,-122.308998,47.449001
15,"(1, 1, 16)",0.0180469,14869,397,SLC,Salt Lake City International Airport,-111.97799682617188,40.78839874267578
16,"(1, 1, 17)",0.0148653,10821,70,BWI,Baltimore/Washington International Thurgood Marshall Airport,-76.668297,39.1754
17,"(1, 1, 18)",0.013881899999999999,12953,249,LGA,La Guardia Airport,-73.87259674,40.77719879
18,"(1, 1, 19)",0.013793399999999999,10721,57,BOS,General Edward Lawrence Logan International Airport,-71.00520325,42.36429977
19,"(1, 1, 20)",0.0134898,11278,113,DCA,Ronald Reagan Washington National Airport,-77.037697,38.8521
20,"(1, 1, 21)",0.013025899999999998,11618,144,EWR,Newark Liberty International Airport,-74.168701171875,40.69250106811523
21,"(1, 1, 22)",0.013007399999999999,12264,202,IAD,Washington Dulles International Airport,-77.45580292,38.94449997
22,"(1, 1, 23)",0.012839099999999999,11697,153,FLL,Fort Lauderdale Hollywood International Airport,-80.152702,26.072599
23,"(1, 1, 24)",0.011959899999999999,15304,421,TPA,Tampa International Airport,-82.533203125,27.975500106811523
24,"(1, 1, 25)",0.0119423,13232,275,MDW,Chicago Midway International Airport,-87.752403,41.785999
25,"(1, 1, 26)",0.0114512,12478,225,JFK,John F Kennedy International Airport,-73.77890015,40.63980103
26,"(1, 1, 27)",0.011269,14679,372,SAN,San Diego International Airport,-117.190002441,32.7336006165
27,"(1, 1, 28)",0.0105329,13303,284,MIA,Miami International Airport,-80.29060363769531,25.79319953918457
28,"(1, 1, 29)",0.0105222,13244,277,MEM,Memphis International Airport,-89.97669982910156,35.04240036010742
29,"(1, 1, 30)",0.00967469,15016,408,STL,St Louis Lambert International Airport,-90.370003,38.748697
30,"(1, 1, 31)",0.00943389,14057,326,PDX,Portland International Airport,-122.59799960000001,45.58869934
32,"(1, 1, 33)",0.00783389,13198,269,MCI,Kansas City International Airport,-94.713898,39.2976
33,"(1, 1, 34)",0.00783105,10693,55,BNA,Nashville International Airport,-86.6781997680664,36.1245002746582
34,"(1, 1, 35)",0.00744832,11042,89,CLE,Cleveland Hopkins International Airport,-81.8498001099,41.411701202399996
35,"(1, 1, 36)",0.00736857,10423,33,AUS,Austin Robert Mueller Municipal,-97.6997852325,30.2987223546
35,"(1, 1, 36)",0.00736857,10423,33,AUS,Austin Bergstrom International Airport,-97.6698989868164,30.194499969482425
36,"(1, 1, 37)",0.00705824,13495,304,MSY,Louis Armstrong New Orleans International Airport,-90.25800323486328,29.99340057373047
37,"(1, 1, 38)",0.00701725,14635,369,RSW,Southwest Florida International Airport,-81.75520324707031,26.53619956970215
38,"(1, 1, 39)",0.00699623,13342,285,MKE,General Mitchell International Airport,-87.89659881591797,42.94720077514648
39,"(1, 1, 40)",0.00695297,12191,193,HOU,William P Hobby Airport,-95.27890015,29.64539909
40,"(1, 1, 41)",0.00693379,14492,357,RDU,Raleigh Durham International Airport,-78.7874984741211,35.877601623535156
41,"(1, 1, 42)",0.0068881,11193,104,CVG,Cincinnati Northern Kentucky International Airport,-84.6678009033,39.0488014221
42,"(1, 1, 43)",0.00674404,14683,373,SAT,San Antonio International Airport,-98.46980285644531,29.533700942993164
43,"(1, 1, 44)",0.00649081,14122,338,PIT,Pittsburgh International Airport,-80.23290253,40.49150085
44,"(1, 1, 45)",0.0063347,12339,211,IND,Indianapolis International Airport,-86.294403,39.7173
45,"(1, 1, 46)",0.00598921,14908,401,SNA,John Wayne Airport-Orange County Airport,-117.86799620000001,33.67570114
46,"(1, 1, 47)",0.0053588,14893,399,SMF,Sacramento International Airport,-121.59100341796876,38.69540023803711
47,"(1, 1, 48)",0.0053506,11066,92,CMH,John Glenn Columbus International Airport,-82.891899,39.998001
48,"(1, 1, 49)",0.00520573,11259,110,DAL,Dallas Love Field,-96.851799,32.847099
49,"(1, 1, 50)",0.00504023,14831,394,SJC,Norman Y. Mineta San Jose International Airport,-121.929001,37.362598
50,"(1, 1, 51)",0.00491683,12451,224,JAX,Jacksonville International Airport,-81.68789672851562,30.49410057067871
51,"(1, 1, 52)",0.00478793,14027,325,PBI,Palm Beach International Airport,-80.09559631347656,26.68320083618164
52,"(1, 1, 53)",0.00465523,10529,38,BDL,Bradley International Airport,-72.68319702149999,41.9388999939
54,"(1, 1, 55)",0.00438393,10140,3,ABQ,Albuquerque International Sunport,-106.609001,35.040199
55,"(1, 1, 56)",0.0043073,13796,310,OAK,Metropolitan Oakland International Airport,-122.221001,37.721298
56,"(1, 1, 57)",0.00382975,10792,68,BUF,Buffalo Niagara International Airport,-78.73220062,42.94049835
57,"(1, 1, 58)",0.00368209,13871,315,OMA,Eppley Airfield,-95.89409599999999,41.3032
58,"(1, 1, 59)",0.00357555,15376,425,TUS,Tucson International Airport,-110.94100189208984,32.116100311279304
59,"(1, 1, 60)",0.00349934,13891,317,ONT,Ontario International Airport,-117.60099792480469,34.05599975585937
60,"(1, 1, 61)",0.00330929,14570,364,RNO,Reno Tahoe International Airport,-119.76799774169922,39.49909973144531
62,"(1, 1, 63)",0.0030898,13851,313,OKC,Will Rogers World Airport,-97.60070037841795,35.39310073852539
63,"(1, 1, 64)",0.00304045,14730,382,SDF,Louisville International Standiford Field,-85.736,38.1744
64,"(1, 1, 65)",0.00297322,14524,360,RIC,Richmond International Airport,-77.3197021484375,37.50519943237305
65,"(1, 1, 66)",0.0029725000000000003,14307,352,PVD,Theodore Francis Green State Airport,-71.42040252685547,41.73260116577149
66,"(1, 1, 67)",0.00292691,13931,319,ORF,Norfolk International Airport,-76.20120239257812,36.89459991455078
67,"(1, 1, 68)",0.00280325,10599,47,BHM,Birmingham-Shuttlesworth International Airport,-86.75350189,33.56290054
68,"(1, 1, 69)",0.00240803,15370,423,TUL,Tulsa International Airport,-95.88809967041016,36.19839859008789
69,"(1, 1, 70)",0.00240774,11884,166,GEG,Spokane International Airport,-117.53399658203124,47.61989974975586
70,"(1, 1, 71)",0.0024056,11540,136,ELP,El Paso International Airport,-106.37799840000002,31.80719948
71,"(1, 1, 72)",0.00237902,10713,56,BOI,Boise Air Terminal/Gowen Field,-116.223,43.5644
72,"(1, 1, 73)",0.00233798,11267,111,DAY,James M Cox Dayton International Airport,-84.21939849853516,39.90240097045898
73,"(1, 1, 74)",0.00230238,14576,366,ROC,Greater Rochester International Airport,-77.67240142822266,43.118900299072266
74,"(1, 1, 75)",0.0022342,10800,69,BUR,Bob Hope Airport,-118.35900115966795,34.200698852539055
75,"(1, 1, 76)",0.00222872,11986,177,GRR,Gerald R. Ford International Airport,-85.52279663,42.88079834
76,"(1, 1, 77)",0.00222752,10257,17,ALB,Albany International Airport,-73.80169677734375,42.74829864501953
77,"(1, 1, 78)",0.00214993,13296,283,MHT,Manchester-Boston Regional Airport,-71.435699,42.932598
78,"(1, 1, 79)",0.00210439,10994,83,CHS,Charleston Air Force Base-International Airport,-80.04049683,32.89860153
79,"(1, 1, 80)",0.00206138,12992,252,LIT,Bill & Hillary Clinton National Airport/Adams Field,-92.22429656979999,34.729400634799994
80,"(1, 1, 81)",0.00206059,15096,416,SYR,Syracuse Hancock International Airport,-76.1063003540039,43.11119842529297
81,"(1, 1, 82)",0.00185296,11995,178,GSO,Piedmont Triad International Airport,-79.93730163574219,36.097801208496094
82,"(1, 1, 83)",0.00179188,14262,348,PSP,Palm Springs International Airport,-116.50700378417969,33.829700469970696
83,"(1, 1, 84)",0.00177813,11423,123,DSM,Des Moines International Airport,-93.66310119628906,41.53400039672852
85,"(1, 1, 86)",0.0016204999999999998,13485,300,MSN,Dane County Regional Truax Field,-89.3375015258789,43.13990020751953
86,"(1, 1, 87)",0.00160765,14685,374,SAV,Savannah Hilton Head International Airport,-81.20210266,32.12760162
87,"(1, 1, 88)",0.0016003,11109,98,COS,City of Colorado Springs Municipal Airport,-104.70099599999999,38.805801
88,"(1, 1, 89)",0.00149014,14321,353,PWM,Portland International Jetport Airport,-70.30930328,43.64619827
89,"(1, 1, 90)",0.00148032,14193,341,PNS,Pensacola Regional Airport,-87.18659973144501,30.473400115967003
90,"(1, 1, 91)",0.00147323,14986,407,SRQ,Sarasota Bradenton International Airport,-82.55439758300781,27.39539909362793
91,"(1, 1, 92)",0.00145918,15412,431,TYS,McGhee Tyson Airport,-83.99400329999999,35.81100082
93,"(1, 1, 94)",0.00141232,13230,274,MDT,Harrisburg International Airport,-76.7633972168,40.1935005188
94,"(1, 1, 95)",0.00140319,12278,205,ICT,Wichita Eisenhower National Airport,-97.433098,37.649899
95,"(1, 1, 96)",0.00139715,12197,194,HPN,Westchester County Airport,-73.70760345458984,41.06700134277344
96,"(1, 1, 97)",0.00136947,11996,179,GSP,Greenville Spartanburg International Airport,-82.2189025879,34.895698547399995
97,"(1, 1, 98)",0.00127336,10874,73,CAK,Akron Canton Regional Airport,-81.44219970703125,40.916099548339844
98,"(1, 1, 99)",0.00124172,10785,67,BTV,Burlington International Airport,-73.15329742429998,44.471900939899996
99,"(1, 1, 100)",0.00122747,12448,223,JAN,Jackson-Medgar Wiley Evers International Airport,-90.0758972168,32.3111991882
100,"(1, 1, 101)",0.00122036,12217,196,HSV,Huntsville International Carl T Jones Field,-86.775100708008,34.637199401855
101,"(1, 1, 102)",0.00120264,12954,250,LGB,Long Beach /Daugherty Field/ Airport,-118.15200039999999,33.81769943
103,"(1, 1, 104)",0.00110535,15919,444,XNA,Northwest Arkansas Regional Airport,-94.30680100000001,36.281898
104,"(1, 1, 105)",0.00103111,11638,148,FAT,Fresno Yosemite International Airport,-119.71800231933594,36.77619934082031
105,"(1, 1, 106)",0.00102384,12945,247,LEX,Blue Grass Airport,-84.60590362548828,38.0364990234375
106,"(1, 1, 107)",0.000994637,10868,72,CAE,Columbia Metropolitan Airport,-81.11949920654297,33.93880081176758
107,"(1, 1, 108)",0.000934052,11721,157,FNT,Bishop International Airport,-83.74359893798828,42.96540069580078
108,"(1, 1, 109)",0.000898253,14098,330,PHF,Newport News Williamsburg International Airport,-76.49299622,37.13190079
109,"(1, 1, 110)",0.000895182,11624,145,EYW,Key West International Airport,-81.75959777832031,24.556100845336914
110,"(1, 1, 111)",0.00088768,10849,71,BZN,Gallatin Field,-111.15299990000001,45.77750015
111,"(1, 1, 112)",0.0008787510000000001,13367,290,MLI,Quad City International Airport,-90.50749969482422,41.44850158691406
112,"(1, 1, 113)",0.000876675,12896,240,LBB,Lubbock Preston Smith International Airport,-101.822998,33.663601
113,"(1, 1, 114)",0.0008755039999999999,12323,209,ILM,Wilmington International Airport,-77.90260314941406,34.27059936523437
114,"(1, 1, 115)",0.0008697889999999999,11503,132,EGE,Eagle County Regional Airport,-106.9179993,39.64260101
115,"(1, 1, 116)",0.000868429,11003,85,CID,The Eastern Iowa Airport,-91.71080017089844,41.88470077514648
116,"(1, 1, 117)",0.00086173,12391,217,ISP,Long Island Mac Arthur Airport,-73.10019684,40.79520035
117,"(1, 1, 118)",0.0008559980000000001,10135,1,ABE,Lehigh Valley International Airport,-75.44080352783203,40.652099609375
118,"(1, 1, 119)",0.000844252,10781,66,BTR,Baton Rouge Metropolitan Airport,-91.149597,30.533199
119,"(1, 1, 120)",0.000833691,14689,375,SBA,Santa Barbara Municipal Airport,-119.8399963,34.42620087
120,"(1, 1, 121)",0.000830085,10372,28,ASE,Aspen-Pitkin Co/Sardy Field,-106.8690033,39.22320175
121,"(1, 1, 122)",0.0008173639999999999,13577,308,MYR,Myrtle Beach International Airport,-78.9282989502,33.6796989441
122,"(1, 1, 123)",0.000804015,11481,131,ECP,Northwest Florida Beaches International Airport,-85.79541400000001,30.357105999999998
123,"(1, 1, 124)",0.0007669539999999999,11977,174,GRB,Austin Straubel International Airport,-88.12960052490234,44.48509979248047
124,"(1, 1, 125)",0.000745076,13158,263,MAF,Midland International Airport,-102.2020034790039,31.9424991607666
125,"(1, 1, 126)",0.000726121,11252,109,DAB,Daytona Beach International Airport,-81.058098,29.179899
126,"(1, 1, 127)",0.000725892,15624,440,VPS,Destin-Ft Walton Beach Airport,-86.525398,30.4832
127,"(1, 1, 128)",0.000717857,11973,173,GPT,Gulfport Biloxi International Airport,-89.07009887695312,30.40730094909668
128,"(1, 1, 129)",0.000710169,11775,159,FSD,Joe Foss Field Airport,-96.741897583,43.5820007324
129,"(1, 1, 130)",0.000692085,11637,147,FAR,Hector International Airport,-96.81580352783205,46.92070007324219
130,"(1, 1, 131)",0.000686442,11603,140,EUG,Mahlon Sweet Field,-123.21199798583984,44.12459945678711
131,"(1, 1, 132)",0.0006713789999999999,15249,419,TLH,Tallahassee Regional Airport,-84.35030364990234,30.396499633789066
132,"(1, 1, 133)",0.00066029,10279,22,AMA,Rick Husband Amarillo International Airport,-101.706001,35.219398
133,"(1, 1, 134)",0.000654195,10620,48,BIL,Billings Logan International Airport,-108.54299926757812,45.807701110839844
134,"(1, 1, 135)",0.000647744,10980,81,CHA,Lovell Field,-85.20379638671875,35.03530120849609
135,"(1, 1, 136)",0.000645933,11140,101,CRP,Corpus Christi International Airport,-97.5011978149414,27.77039909362793
136,"(1, 1, 137)",0.000643668,14574,365,ROA,RoanokeâBlacksburg Regional Airport,-79.975403,37.3255
137,"(1, 1, 138)",0.000633405,10431,34,AVL,Asheville Regional Airport,-82.54180145263672,35.43619918823242
138,"(1, 1, 139)",0.000629145,13422,294,MOB,Mobile Regional Airport,-88.242797851562,30.691200256348
139,"(1, 1, 140)",0.000627491,12441,222,JAC,Jackson Hole Airport,-110.73799896240234,43.6072998046875
140,"(1, 1, 141)",0.0006170090000000001,13256,278,MFE,Mc Allen Miller International Airport,-98.23860168,26.17580032
141,"(1, 1, 142)",0.000612902,11641,149,FAY,Fayetteville Regional Grannis Field,-78.88030242919922,34.991199493408196
142,"(1, 1, 143)",0.000607955,10208,13,AGS,Augusta Regional At Bush Field,-81.9645004272461,33.36989974975586
143,"(1, 1, 144)",0.000583221,14252,345,PSC,Tri Cities Airport,-119.11900329589844,46.26470184326172
144,"(1, 1, 145)",0.000581491,11823,161,FWA,Fort Wayne International Airport,-85.19509888,40.97850037
145,"(1, 1, 146)",0.000578339,12094,184,HDN,Yampa Valley Airport,-107.21800230000001,40.48120117
146,"(1, 1, 147)",0.000578231,10685,54,BMI,Central Illinois Regional Airport at Bloomington-Normal,-88.91590118,40.47710037
147,"(1, 1, 148)",0.0005770759999999999,12206,195,HRL,Valley International Airport,-97.65440368652344,26.228500366210934
148,"(1, 1, 149)",0.000567053,14696,376,SBN,South Bend Regional Airport,-86.31729888916016,41.70869827270508
149,"(1, 1, 150)",0.000566756,10434,35,AVP,Wilkes Barre Scranton International Airport,-75.72339630130001,41.338500976599995
150,"(1, 1, 151)",0.0005599369999999999,11146,102,CRW,Yeager Airport,-81.59320068359375,38.37310028076172
151,"(1, 1, 152)",0.000546231,14783,388,SGF,Springfield Branson National Airport,-93.38860321,37.24570084
152,"(1, 1, 153)",0.000542315,13360,289,MLB,Melbourne International Airport,-80.64530181884766,28.10280036926269
153,"(1, 1, 154)",0.000537954,10408,30,ATW,Appleton International Airport,-88.51909637450001,44.258098602299995
154,"(1, 1, 155)",0.000510404,14814,392,SHV,Shreveport Regional Airport,-93.8256,32.446602
155,"(1, 1, 156)",0.000484394,10990,82,CHO,Charlottesville Albemarle Airport,-78.4529037475586,38.13859939575195
156,"(1, 1, 157)",0.00047558800000000004,13264,279,MFR,Rogue Valley International Medford Airport,-122.8730010986328,42.37419891357422
157,"(1, 1, 158)",0.00046312800000000004,12951,248,LFT,Lafayette Regional Airport,-91.98760223,30.20529938
158,"(1, 1, 159)",0.00046078199999999997,14108,333,PIA,General Wayne A. Downing Peoria International Airport,-89.6932983398,40.664199829100006
159,"(1, 1, 160)",0.00045329800000000004,14489,356,RDM,Roberts Field,-121.15000149999999,44.254100799999996
160,"(1, 1, 161)",0.00043191800000000005,13277,280,MGM,Montgomery Regional (Dannelly Field) Airport,-86.39399719,32.30059814
161,"(1, 1, 162)",0.000426247,13795,309,OAJ,Albert J Ellis Airport,-77.61209869380002,34.8292007446
162,"(1, 1, 163)",0.000425965,11982,176,GRK,Robert Gray  Army Air Field Airport,-97.8289031982,31.067199706999997
163,"(1, 1, 164)",0.000425898,11953,172,GNV,Gainesville Regional Airport,-82.27179718020001,29.6900997162
164,"(1, 1, 165)",0.00042545,15323,422,TRI,Tri-Cities Regional TN/VA Airport,-82.40740100000001,36.475201
165,"(1, 1, 166)",0.000420003,13486,301,MSO,Missoula International Airport,-114.0910034,46.91630173
166,"(1, 1, 167)",0.00041401800000000005,11921,170,GJT,Grand Junction Regional Airport,-108.527000427,39.1223983765
167,"(1, 1, 168)",0.00040618,14457,354,RAP,Rapid City Regional Airport,-103.05699920654295,44.0452995300293
168,"(1, 1, 169)",0.000404369,10158,9,ACY,Atlantic City International Airport,-74.57720184326172,39.45759963989258
169,"(1, 1, 170)",0.00039743900000000003,13476,298,MRY,Monterey Peninsula Airport,-121.84300231933594,36.58700180053711
170,"(1, 1, 171)",0.00038703800000000003,11612,141,EVV,Evansville Regional Airport,-87.53240203860001,38.0369987488
171,"(1, 1, 172)",0.000376734,10666,53,BLI,Bellingham International Airport,-122.53800201416016,48.79280090332031
172,"(1, 1, 173)",0.000360215,11203,106,CWA,Central Wisconsin Airport,-89.6668014526,44.7775993347
173,"(1, 1, 174)",0.00035442199999999996,13502,305,MTJ,Montrose Regional Airport,-107.89399719200001,38.5097999573
174,"(1, 1, 175)",0.000352124,15070,415,SWF,Stewart International Airport,-74.10479736328125,41.50410079956055
175,"(1, 1, 176)",0.00034928,14711,380,SCE,University Park Airport,-77.84870147710002,40.8493003845
176,"(1, 1, 177)",0.000344274,14698,377,SBP,San Luis County Regional Airport,-120.64199829100001,35.2368011475
177,"(1, 1, 178)",0.00034410800000000003,10627,49,BIS,Bismarck Municipal Airport,-100.74600219726562,46.77270126342773
178,"(1, 1, 179)",0.000335871,11413,121,DRO,Durango La Plata County Airport,-107.75399780299999,37.1515007019
179,"(1, 1, 180)",0.000334831,10581,44,BGR,Bangor International Airport,-68.82810211181639,44.80739974975586
181,"(1, 1, 182)",0.00032580799999999997,13184,266,MBS,MBS International Airport,-84.07959747314453,43.532901763916016
182,"(1, 1, 183)",0.000324344,12884,235,LAN,Capital City Airport,-84.58740234375,42.77870178222656
183,"(1, 1, 184)",0.000317606,11537,135,ELM,Elmira Corning Regional Airport,-76.8916015625,42.1599006652832
184,"(1, 1, 185)",0.000302848,11617,143,EWN,Coastal Carolina Regional Airport,-77.04290008539998,35.0730018616
186,"(1, 1, 187)",0.000295544,10185,12,AEX,Alexandria International Airport,-92.54979705810548,31.32740020751953
187,"(1, 1, 188)",0.000294659,15380,426,TVC,Cherry Capital Airport,-85.58219909667969,44.74140167236328
188,"(1, 1, 189)",0.00029451099999999996,11648,150,FCA,Glacier Park International Airport,-114.25599670410156,48.31050109863281
189,"(1, 1, 190)",0.000290652,13029,254,LNK,Lincoln Airport,-96.75920104980469,40.85100173950195
190,"(1, 1, 191)",0.000287513,10469,37,AZO,Kalamazoo Battle Creek International Airport,-85.5521011352539,42.234901428222656
191,"(1, 1, 192)",0.000285229,11337,120,DLH,Duluth International Airport,-92.19360351559999,46.8420982361
192,"(1, 1, 193)",0.000281563,10561,42,BFL,Meadows Field,-119.0569992,35.43360138
193,"(1, 1, 194)",0.00027796,10577,43,BGM,Greater Binghamton/Edwin A Link field,-75.97979736,42.20869827
194,"(1, 1, 195)",0.00027608200000000003,14633,368,RST,Rochester International Airport,-92.5,43.90829849243164
195,"(1, 1, 196)",0.000271484,12397,218,ITH,Ithaca Tompkins Regional Airport,-76.4583969116211,42.49100112915039
196,"(1, 1, 197)",0.000268324,12003,180,GTF,Great Falls International Airport,-111.3710022,47.48199844
197,"(1, 1, 198)",0.000261252,12280,206,IDA,Idaho Falls Regional Airport,-112.070999,43.514599
198,"(1, 1, 199)",0.000255822,11577,138,ERI,Erie International Tom Ridge Field,-80.1738667488,42.0831270134
199,"(1, 1, 200)",0.000252181,10466,36,AZA,Phoenix-Mesa-Gateway Airport,-111.65499879999999,33.30780029
200,"(1, 1, 201)",0.000249583,13433,296,MOT,Minot International Airport,-101.27999877929688,48.2593994140625
201,"(1, 1, 202)",0.00024775,13377,292,MLU,Monroe Regional Airport,-92.0376968383789,32.51089859008789
202,"(1, 1, 203)",0.000245493,13076,258,LSE,La Crosse Municipal Airport,-91.256699,43.879002
203,"(1, 1, 204)",0.00024498099999999996,16218,448,YUM,Yuma MCAS/Yuma International Airport,-114.6060028,32.65660095
204,"(1, 1, 205)",0.000244686,14112,335,PIE,St Petersburg Clearwater International Airport,-82.68740082,27.91020012
205,"(1, 1, 206)",0.000238065,14761,386,SFB,Orlando Sanford International Airport,-81.23750305175781,28.7775993347168
206,"(1, 1, 207)",0.000219158,11898,167,GFK,Grand Forks International Airport,-97.176102,47.949298999999996
207,"(1, 1, 208)",0.000216603,12156,188,HLN,Helena Regional Airport,-111.98300170898438,46.6068000793457
208,"(1, 1, 209)",0.000201129,13139,262,LYH,Lynchburg Regional Preston Glenn Field,-79.20040130615234,37.326698303222656
209,"(1, 1, 210)",0.000199754,11778,160,FSM,Fort Smith Regional Airport,-94.36740112304688,35.33660125732422
210,"(1, 1, 211)",0.00019633900000000002,11067,93,CMI,University of Illinois Willard Airport,-88.27809906,40.03919983
211,"(1, 1, 212)",0.00019505,10747,63,BRO,Brownsville South Padre Island International Airport,-97.4259033203125,25.90679931640625
212,"(1, 1, 213)",0.00019093,10157,8,ACV,California Redwood Coast-Humboldt County Airport,-124.109,40.978101
213,"(1, 1, 214)",0.00018229799999999998,15411,430,TYR,Tyler Pounds Regional Airport,-95.40239715576172,32.35409927368164
214,"(1, 1, 215)",0.000180283,11699,154,FLO,Florence Regional Airport,-79.7238998413086,34.18539810180664
215,"(1, 1, 216)",0.000177863,14092,329,PGV,Pitt Greenville Airport,-77.38529968,35.6352005
216,"(1, 1, 217)",0.000177715,12012,182,GUC,Gunnison Crested Butte Regional Airport,-106.9329987,38.53390121
218,"(1, 1, 219)",0.000170132,13061,257,LRD,Laredo International Airport,-99.46160125732422,27.543800354003906
219,"(1, 1, 220)",0.000169967,11122,100,CPR,Casper-Natrona County International Airport,-106.46399699999999,42.908001
220,"(1, 1, 221)",0.000168723,11049,90,CLL,Easterwood Field,-96.36380005,30.58860016
221,"(1, 1, 222)",0.000167508,14704,378,SBY,Salisbury Ocean City Wicomico Regional Airport,-75.51029968261719,38.34049987792969
222,"(1, 1, 223)",0.000159045,10136,2,ABI,Abilene Regional Airport,-99.68190002440001,32.4113006592
223,"(1, 1, 224)",0.000149912,12915,244,LCH,Lake Charles Regional Airport,-93.22329711914062,30.12610054016113
224,"(1, 1, 225)",0.000142575,12223,197,HTS,Tri-State/Milton J. Ferguson Field,-82.55799866,38.36669922
225,"(1, 1, 226)",0.000142424,15041,412,SUN,Friedman Memorial Airport,-114.2959976,43.50439835
226,"(1, 1, 227)",0.00014162299999999998,11150,103,CSG,Columbus Metropolitan Airport,-84.93890380859375,32.516300201416016
227,"(1, 1, 228)",0.000140126,14952,404,SPI,Abraham Lincoln Capital Airport,-89.67790222,39.84410095
228,"(1, 1, 229)",0.000138536,11695,152,FLG,Flagstaff Pulliam Airport,-111.6709976,35.13850021
229,"(1, 1, 230)",0.000130474,11041,88,CLD,Mc Clellan-Palomar Airport,-117.27999879999999,33.12829971
231,"(1, 1, 232)",0.000129002,10155,7,ACT,Waco Regional Airport,-97.23049926757812,31.61129951477051
232,"(1, 1, 233)",0.000127444,12124,186,HHH,Hilton Head Airport,-80.6975021362,32.2243995667
233,"(1, 1, 234)",0.000125084,13127,260,LWS,Lewiston Nez Perce County Airport,-117.01499938964844,46.3745002746582
234,"(1, 1, 235)",0.00012319799999999998,15023,409,STS,Charles M. Schulz Sonoma County Airport,-122.8130035,38.50899887
235,"(1, 1, 236)",0.000122383,12891,238,LAW,Lawton Fort Sill Regional Airport,-98.4166030884,34.5676994324
236,"(1, 1, 237)",0.00012044,13290,282,MHK,Manhattan Regional Airport,-96.6707992553711,39.14099884033203
237,"(1, 1, 238)",0.000116833,16101,446,YKM,Yakima Air Terminal McAllister Field,-120.5439987,46.56819916
238,"(1, 1, 239)",0.00011444200000000001,14487,355,RDD,Redding Municipal Airport,-122.2929993,40.50899887
239,"(1, 1, 240)",0.00011005,12244,198,HVN,Tweed New Haven Airport,-72.88680267,41.26369858
240,"(1, 1, 241)",0.000106925,14842,395,SJT,San Angelo Regional Mathis Field,-100.49600219726562,31.35770034790039
241,"(1, 1, 242)",0.00010255899999999999,13459,297,MQT,Sawyer International Airport,-87.39540100100001,46.3535995483
242,"(1, 1, 243)",9.983709999999999e-05,15295,420,TOL,Toledo Express Airport,-83.80780029,41.58679962
243,"(1, 1, 244)",9.87658e-05,11111,99,COU,Columbia Regional Airport,-92.21959686279295,38.81809997558594
244,"(1, 1, 245)",9.85456e-05,15607,439,VLD,Valdosta Regional Airport,-83.27670288085938,30.78249931335449
245,"(1, 1, 246)",9.811e-05,10643,51,BKG,Branson Airport,-93.200544,36.532082
246,"(1, 1, 247)",9.31903e-05,11470,129,EAT,Pangborn Memorial Airport,-120.20700073200001,47.3988990784
247,"(1, 1, 248)",9.18097e-05,11308,117,DHN,Dothan Regional Airport,-85.44960021972656,31.3213005065918
248,"(1, 1, 249)",8.702610000000001e-05,10146,5,ABY,Southwest Georgia Regional Airport,-84.19450378417969,31.535499572753906
249,"(1, 1, 250)",8.6948e-05,14025,324,PBG,Plattsburgh International Airport,-73.46810150146484,44.6509017944336
250,"(1, 1, 251)",8.61844e-05,11865,163,GCC,Gillette Campbell County Airport,-105.539001465,44.3488998413
251,"(1, 1, 252)",8.51175e-05,11274,112,DBQ,Dubuque Regional Airport,-90.70950317,42.40200043
252,"(1, 1, 253)",8.31238e-05,12007,181,GTR,Golden Triangle Regional Airport,-88.59140014649999,33.450298309299995
253,"(1, 1, 254)",7.89473e-05,14588,367,ROW,Roswell International Air Center Airport,-104.53099822998048,33.30160140991211
254,"(1, 1, 255)",7.88307e-05,14674,371,SAF,Santa Fe Municipal Airport,-106.08899688700001,35.617099761999995
255,"(1, 1, 256)",7.87147e-05,14960,406,SPS,Sheppard Air Force Base-Wichita Falls Municipal Airport,-98.49189799999999,33.9888
256,"(1, 1, 257)",7.80117e-05,14794,389,SGU,St George Municipal Airport,-113.510306,37.036389
257,"(1, 1, 258)",7.73129e-05,15389,428,TWF,Joslin Field Magic Valley Regional Airport,-114.487999,42.4818
258,"(1, 1, 259)",7.53243e-05,14303,350,PUW,Pullman Moscow Regional Airport,-117.110001,46.7439
259,"(1, 1, 260)",7.446880000000001e-05,10731,59,BQK,Brunswick Golden Isles Airport,-81.46649932861328,31.2588005065918
260,"(1, 1, 261)",7.27956e-05,11076,94,CMX,Houghton County Memorial Airport,-88.48909759521484,47.16839981079102
261,"(1, 1, 262)",7.10939e-05,12365,214,IPT,Williamsport Regional Airport,-76.92109680175781,41.241798400878906
262,"(1, 1, 263)",6.79854e-05,13388,293,MMH,Mammoth Yosemite Airport,-118.83799740000002,37.62409973
263,"(1, 1, 264)",6.74558e-05,15401,429,TXK,Texarkana Regional Webb Field,-93.99099731445312,33.45370101928711
264,"(1, 1, 265)",6.72367e-05,14543,363,RKS,Southwest Wyoming Regional Airport,-109.065001,41.5942
265,"(1, 1, 266)",6.533609999999999e-05,11002,84,CIC,Chico Municipal Airport,-121.8580017,39.79539871
266,"(1, 1, 267)",6.42877e-05,13424,295,MOD,Modesto City Co-Harry Sham Field,-120.9540024,37.62580109
267,"(1, 1, 268)",5.8736499999999996e-05,14905,400,SMX,Santa Maria Pub/Capt G Allan Hancock Field,-120.4570007,34.89889908
268,"(1, 1, 269)",5.85468e-05,15048,413,SUX,Sioux Gateway Col. Bud Day Field,-96.38439941,42.40259933
269,"(1, 1, 270)",5.7917299999999995e-05,15177,418,TEX,Telluride Regional Airport,-107.90799709999999,37.9538002
270,"(1, 1, 271)",5.76658e-05,11471,130,EAU,Chippewa Valley Regional Airport,-91.48429870605469,44.86579895019531
271,"(1, 1, 272)",5.61771e-05,13024,253,LMT,Crater Lake-Klamath Regional Airport,-121.733002,42.156101
272,"(1, 1, 273)",5.610560000000001e-05,10275,21,ALW,Walla Walla Regional Airport,-118.288002,46.09489822
274,"(1, 1, 275)",5.53845e-05,13964,320,OTH,Southwest Oregon Regional Airport,-124.24600219726562,43.41709899902344
275,"(1, 1, 276)",5.41082e-05,11905,168,GGG,East Texas Regional Airport,-94.71150207519531,32.38399887084961
276,"(1, 1, 277)",5.2482200000000004e-05,11097,97,COD,Yellowstone Regional Airport,-109.024002075,44.520198822
277,"(1, 1, 278)",5.2210100000000003e-05,14006,323,PAH,Barkley Regional Airport,-88.7738037109375,37.06079864501953
278,"(1, 1, 279)",5.1951000000000005e-05,10779,65,BTM,Bert Mooney Airport,-112.49700164794922,45.95479965209961
279,"(1, 1, 280)",5.18325e-05,14113,336,PIH,Pocatello Regional Airport,-112.59600067138672,42.9098014831543
280,"(1, 1, 281)",5.1579700000000004e-05,11233,108,CYS,Cheyenne Regional Jerry Olson Field,-104.81199649999999,41.15570068
281,"(1, 1, 282)",4.99394e-05,10268,19,ALO,Waterloo Regional Airport,-92.40029907226562,42.55709838867188
282,"(1, 1, 283)",4.9589099999999996e-05,10141,4,ABR,Aberdeen Regional Airport,-98.42179870605469,45.44910049438477
283,"(1, 1, 284)",4.87043e-05,11525,133,EKO,Elko Regional Airport,-115.79199981689452,40.82490158081055
284,"(1, 1, 285)",4.6738999999999994e-05,14231,343,PQI,Northern Maine Regional Airport at Presque Isle,-68.0447998,46.68899918
285,"(1, 1, 286)",4.5973e-05,10631,50,BJI,Bemidji Regional Airport,-94.93370056,47.50939941
286,"(1, 1, 287)",4.5645e-05,12511,228,JLN,Joplin Regional Airport,-94.49829864501952,37.151798248291016
287,"(1, 1, 288)",4.5136800000000005e-05,14520,359,RHI,Rhinelander Oneida County Airport,-89.46749877929688,45.63119888305664
288,"(1, 1, 289)",3.9588899999999996e-05,11013,86,CIU,Chippewa County International Airport,-84.47239685058594,46.25080108642578
289,"(1, 1, 290)",3.867e-05,12389,216,ISN,Sloulin Field International Airport,-103.64199829100001,48.177898407
290,"(1, 1, 291)",3.8374499999999997e-05,13344,286,MKG,Muskegon County Airport,-86.23819733,43.16949844
291,"(1, 1, 292)",3.8093299999999997e-05,14109,334,PIB,Hattiesburg Laurel Regional Airport,-89.33709716796875,31.467100143432614
292,"(1, 1, 293)",3.73985e-05,10930,78,CEC,Jack Mc Namara Field Airport,-124.23699950000001,41.78020096
293,"(1, 1, 294)",3.6739e-05,14512,358,RFD,Chicago Rockford International Airport,-89.09719848632812,42.19540023803711
294,"(1, 1, 295)",3.66047e-05,14082,328,PGD,Charlotte County Airport,-81.99050140000001,26.92020035
295,"(1, 1, 296)",3.56171e-05,13211,273,MCW,Mason City Municipal Airport,-93.33129882809999,43.15779876710001
296,"(1, 1, 297)",3.54916e-05,13241,276,MEI,Key Field,-88.75189971923828,32.33259963989258
297,"(1, 1, 298)",3.49584e-05,10728,58,BPT,Southeast Texas Regional Airport,-94.02069854736328,29.9507999420166
298,"(1, 1, 299)",3.32792e-05,10739,61,BRD,Brainerd Lakes Regional Airport,-94.13809967,46.39830017
299,"(1, 1, 300)",3.17125e-05,15374,424,TUP,Tupelo Regional Airport,-88.7698974609375,34.26810073852539
300,"(1, 1, 301)",2.99271e-05,14150,340,PLN,Pellston Regional Airport of Emmet County Airport,-84.79669952,45.57089996
301,"(1, 1, 302)",2.98156e-05,11587,139,ESC,Delta County Airport,-87.0936965942,45.7226982117
302,"(1, 1, 303)",2.97079e-05,14802,390,SHD,Shenandoah Valley Regional Airport,-78.8964004517,38.2638015747
303,"(1, 1, 304)",2.85383e-05,11980,175,GRI,Central Nebraska Regional Airport,-98.30960083007812,40.96749877929688
304,"(1, 1, 305)",2.68851e-05,11725,158,FOD,Fort Dodge Regional Airport,-94.19259644,42.55149841
306,"(1, 1, 307)",2.66377e-05,12129,187,HIB,Range Regional Airport,-92.83899689,47.38660049
307,"(1, 1, 308)",2.62972e-05,14120,337,PIR,Pierre Regional Airport,-100.2860031,44.38270187
308,"(1, 1, 309)",2.5966300000000002e-05,10333,26,APN,Alpena County Regional Airport,-83.56030273,45.07809829999999
309,"(1, 1, 310)",2.5635700000000003e-05,13121,259,LWB,Greenbrier Valley Airport,-80.3994979858,37.8582992554
311,"(1, 1, 312)",2.43261e-05,13282,281,MGW,Morgantown Municipal Walter L. Bill Hart Field,-79.91629791,39.64289856
312,"(1, 1, 313)",2.40896e-05,12343,212,INL,Falls International Airport,-93.4030990600586,48.566200256347656
313,"(1, 1, 314)",2.37575e-05,12335,210,IMT,Ford Airport,-88.11450195309999,45.8184013367
314,"(1, 1, 315)",2.3715e-05,11315,118,DIK,Dickinson Theodore Roosevelt Regional Airport,-102.80200195299999,46.7974014282
315,"(1, 1, 316)",2.25795e-05,10409,31,ATY,Watertown Regional Airport,-97.15470123,44.91400146
316,"(1, 1, 317)",2.25305e-05,11415,122,DRT,Del Rio International Airport,-100.92700195299999,29.3742008209
317,"(1, 1, 318)",2.20848e-05,14534,361,RIW,Riverton Regional Airport,-108.459999084,43.064201355
318,"(1, 1, 319)",2.17266e-05,10590,46,IFP,Laughlin Bullhead International Airport,-114.5599976,35.15739822
320,"(1, 1, 321)",2.0852899999999998e-05,14288,349,PUB,Pueblo Memorial Airport,-104.49700164794922,38.289100646972656
321,"(1, 1, 322)",2.0424e-05,12436,221,IYK,Inyokern Airport,-117.83000179999999,35.65879822
322,"(1, 1, 323)",1.92968e-05,11867,164,GCK,Garden City Regional Airport,-100.72399902299999,37.9275016785
323,"(1, 1, 324)",1.92053e-05,15138,417,TBN,Waynesville-St. Robert Regional Forney field,-92.14070129,37.74160004
325,"(1, 1, 326)",1.84795e-05,11711,155,FMN,Four Corners Regional Airport,-108.230003357,36.7411994934
326,"(1, 1, 327)",1.83829e-05,12559,231,JST,John Murtha Johnstown Cambria County Airport,-78.83390045166016,40.31610107421875
327,"(1, 1, 328)",1.80366e-05,13484,299,MSL,Northwest Alabama Regional Airport,-87.61019897,34.74530029
329,"(1, 1, 330)",1.75515e-05,14812,391,SHR,Sheridan County Airport,-106.9800033569336,44.76919937133789
330,"(1, 1, 331)",1.74068e-05,12363,213,IPL,Imperial County Airport,-115.57900238,32.834201812699995
331,"(1, 1, 332)",1.72161e-05,11719,156,FNL,Northern Colorado Regional Airport,-105.01100000000001,40.451803999999996
332,"(1, 1, 333)",1.6978e-05,11468,128,EAR,Kearney Regional Airport,-99.00679779,40.72700119
333,"(1, 1, 334)",1.6178499999999998e-05,11447,127,DVL,Devils Lake Regional Airport,-98.90879822,48.11420059
334,"(1, 1, 335)",1.61117e-05,16133,447,YNG,Youngstown Warren Regional Airport,-80.67910004,41.26070023
335,"(1, 1, 336)",1.57974e-05,11931,171,GLH,Mid Delta Regional Airport,-90.98560333251952,33.482898712158196
336,"(1, 1, 337)",1.40656e-05,10558,41,BFF,Western Neb. Rgnl/William B. Heilig Airport,-103.5960007,41.87400055
337,"(1, 1, 338)",1.40077e-05,11027,87,CKB,North Central West Virginia Airport,-80.2281036377,39.2966003418
338,"(1, 1, 339)",1.3838599999999998e-05,10589,45,BHB,Hancock County-Bar Harbor Airport,-68.36150359999999,44.45000076
339,"(1, 1, 340)",1.36564e-05,11441,125,DUJ,DuBois Regional Airport,-78.8986969,41.17829895
340,"(1, 1, 341)",1.3151600000000001e-05,12519,229,JMS,Jamestown Regional Airport,-98.67819977,46.92969894
341,"(1, 1, 342)",1.31346e-05,12888,236,LAR,Laramie Regional Airport,-105.6750030517578,41.31209945678711
342,"(1, 1, 343)",1.3083399999999999e-05,12265,203,IAG,Niagara Falls International Airport,-78.94619750976562,43.1072998046875
343,"(1, 1, 344)",1.2739100000000001e-05,12898,241,LBE,Arnold Palmer Regional Airport,-79.40480042,40.27590179
344,"(1, 1, 345)",1.26697e-05,12255,201,HYS,Hays Regional Airport,-99.27320099,38.84220123
345,"(1, 1, 346)",1.20224e-05,14131,339,PKB,Mid Ohio Valley Regional Airport,-81.43920135498047,39.34510040283203
346,"(1, 1, 347)",1.16247e-05,12899,242,LBF,North Platte Regional Airport Lee Bird Field,-100.6839981,41.12620163
348,"(1, 1, 349)",1.08002e-05,15569,435,VCT,Victoria Regional Airport,-96.9185028076172,28.85260009765625
349,"(1, 1, 350)",1.0722e-05,13543,307,MWA,Williamson County Regional Airport,-89.01110077,37.75500107
350,"(1, 1, 351)",1.0495999999999999e-05,10322,25,AOO,Altoona Blair County Airport,-78.31999969,40.29639816
351,"(1, 1, 352)",1.02246e-05,14716,381,SCK,Stockton Metropolitan Airport,-121.2379989624,37.894199371338
352,"(1, 1, 353)",1.02043e-05,10918,75,CDC,Cedar City Regional Airport,-113.0989990234375,37.70100021362305
353,"(1, 1, 354)",1.01292e-05,15454,432,UIN,Quincy Regional Baldwin Field,-91.19460297,39.94269943
354,"(1, 1, 355)",9.176410000000001e-06,13983,322,OWB,Owensboro Daviess County Airport,-87.16680145,37.74010086
355,"(1, 1, 356)",9.15096e-06,10361,27,ART,Watertown International Airport,-76.02169799804688,43.99190139770508
356,"(1, 1, 357)",9.06422e-06,10272,20,ALS,San Luis Valley Regional Bergman Field,-105.866997,37.434898
357,"(1, 1, 358)",8.287200000000001e-06,12494,227,JHW,Chautauqua County-Jamestown Airport,-79.25800323,42.15340042
358,"(1, 1, 359)",8.136499999999999e-06,12902,243,LBL,Liberal Mid-America Regional Airport,-100.95999909999999,37.04420089999999
359,"(1, 1, 360)",7.671280000000001e-06,15381,427,TVF,Thief River Falls Regional Airport,-96.18499756,48.06570053
360,"(1, 1, 361)",6.98176e-06,10154,6,ACK,Nantucket Memorial Airport,-70.06020355,41.25310135
361,"(1, 1, 362)",6.863430000000001e-06,10414,32,AUG,Augusta State Airport,-69.7973022461,44.320598602299995
362,"(1, 1, 363)",6.627139999999999e-06,11283,114,DDC,Dodge City Regional Airport,-99.9655990600586,37.76340103149414
363,"(1, 1, 364)",6.62676e-06,12932,246,LEB,Lebanon Municipal Airport,-72.30419921880002,43.626098632799994
364,"(1, 1, 365)",6.16639e-06,15502,434,UTM,Tunica Municipal Airport,-90.34670257568399,34.680999755859
365,"(1, 1, 366)",5.91675e-06,14648,370,RUT,Rutland - Southern Vermont Regional Airport,-72.94960022,43.52939987
366,"(1, 1, 367)",5.8912000000000004e-06,10967,80,CGI,Cape Girardeau Regional Airport,-89.57080078125,37.22529983520508
367,"(1, 1, 368)",5.81179e-06,10950,79,CEZ,Cortez Municipal Airport,-108.627998352,37.3030014038
368,"(1, 1, 369)",5.57932e-06,15582,437,VEL,Vernal Regional Airport,-109.5100021,40.4408989
369,"(1, 1, 370)",5.49425e-06,13541,306,MVY,Martha's Vineyard Airport,-70.6143035889,41.393100738499996
370,"(1, 1, 371)",5.38049e-06,13032,255,LNS,Lancaster Airport,-76.29609680175781,40.12170028686523
371,"(1, 1, 372)",4.8974e-06,10557,40,BFD,Bradford Regional Airport,-78.64009857177734,41.8031005859375
372,"(1, 1, 373)",4.7956499999999996e-06,12119,185,HGR,Hagerstown Regional Richard A Henson Field,-77.72949982,39.707901
373,"(1, 1, 374)",4.24167e-06,12375,215,IRK,Kirksville Regional Airport,-92.5448989868164,40.09349822998047
374,"(1, 1, 375)",4.078e-06,11197,105,CVN,Clovis Municipal Airport,-103.07900238,34.4250984192
375,"(1, 1, 376)",3.9771e-06,10654,52,BKW,Raleigh County Memorial Airport,-81.1241989136,37.787300109899995
376,"(1, 1, 377)",3.75356e-06,13490,303,MSS,Massena International Richards Field,-74.84559631347656,44.93579864501953
377,"(1, 1, 378)",3.71954e-06,13200,270,MCK,Mc Cook Ben Nelson Regional Airport,-100.59200290000001,40.20629883
378,"(1, 1, 379)",3.4755800000000005e-06,12250,200,HYA,Barnstable Municipal Boardman Polando Field,-70.28040314,41.66930008
379,"(1, 1, 380)",3.3708400000000002e-06,15843,443,WRL,Worland Municipal Airport,-107.95099639892578,43.9656982421875
380,"(1, 1, 381)",3.36406e-06,14081,327,PGA,Page Municipal Airport,-111.447998,36.92610168
381,"(1, 1, 382)",3.26819e-06,11684,151,FKL,Venango Regional Airport,-79.8603973389,41.3778991699
382,"(1, 1, 383)",3.14764e-06,14745,384,SDY,Sidney - Richland Regional Airport,-104.193001,47.706902
383,"(1, 1, 384)",3.07671e-06,14539,362,RKD,Knox County Regional Airport,-69.09919739,44.06010056
385,"(1, 1, 386)",2.5571900000000004e-06,11092,96,CNY,Canyonlands Field,-109.7549973,38.75500107
386,"(1, 1, 387)",2.46514e-06,13832,312,OGS,Ogdensburg International Airport,-75.46549987790002,44.681900024399994
387,"(1, 1, 388)",2.44329e-06,13203,271,MCN,Middle Georgia Regional Airport,-83.64920043945312,32.692798614501946
388,"(1, 1, 389)",2.44095e-06,12185,192,HON,Huron Regional Airport,-98.22850036621094,44.38520050048828
389,"(1, 1, 390)",2.32471e-06,10925,76,CDR,Chadron Municipal Airport,-103.095001221,42.837600708000004
390,"(1, 1, 391)",2.2483599999999997e-06,14875,398,SLK,Adirondack Regional Airport,-74.2061996459961,44.38529968261719
391,"(1, 1, 392)",1.76477e-06,11908,169,GGW,Wokal Field Glasgow International Airport,-106.614998,48.212502
392,"(1, 1, 393)",1.51106e-06,11856,162,GBD,Great Bend Municipal Airport,-98.85919952389999,38.3442993164
393,"(1, 1, 394)",1.51106e-06,14237,344,PRC,Ernest A. Love Field,-112.41999820000001,34.65449905
394,"(1, 1, 395)",1.502e-06,13182,265,MBL,Manistee Co Blacker Airport,-86.24690247,44.2723999
395,"(1, 1, 396)",1.42002e-06,14306,351,PVC,Provincetown Municipal Airport,-70.2213973999,42.071899414099995
396,"(1, 1, 397)",1.3994700000000001e-06,12245,199,HVR,Havre City County Airport,-109.762001,48.54299927
397,"(1, 1, 398)",1.39483e-06,10221,15,AIA,Alliance Municipal Airport,-102.804000854,42.0531997681
398,"(1, 1, 399)",1.39483e-06,13375,291,MLS,Frank Wiley Field,-105.88600158691406,46.428001403808594
399,"(1, 1, 400)",1.2888e-06,13862,314,OLF,L M Clayton Airport,-105.57499694799999,48.0945014954
400,"(1, 1, 401)",1.27742e-06,14943,403,SOW,Show Low Regional Airport,-110.005996704,34.265499115
401,"(1, 1, 402)",1.04863e-06,11085,95,CNM,Cavern City Air Terminal,-104.26300048828124,32.337501525878906
402,"(1, 1, 403)",1.04712e-06,10216,14,AHN,Athens Ben Epps Airport,-83.32630157470703,33.94860076904297
403,"(1, 1, 404)",1.03985e-06,12412,220,IWD,Gogebic Iron County Airport,-90.13140106200001,46.52750015260001
404,"(1, 1, 405)",1.0339499999999999e-06,12297,207,IGM,Kingman Airport,-113.93800354003906,35.259498596191406
405,"(1, 1, 406)",8.155989999999999e-07,10266,18,ALM,Alamogordo White Sands Regional Airport,-105.990997314,32.839900970500004
406,"(1, 1, 407)",8.15506e-07,11879,165,GDV,Dawson Community Airport,-104.8069992,47.13869858
407,"(1, 1, 408)",7.00198e-07,13128,261,LWT,Lewistown Municipal Airport,-109.46700286865234,47.04930114746094
408,"(1, 1, 409)",5.82571e-07,15051,414,SVC,Grant County Airport,-108.15599822998048,32.63650131225586
409,"(1, 1, 410)",3.4984999999999997e-07,13348,288,MKL,McKellar-Sipes Regional Airport,-88.915604,35.599899
410,"(1, 1, 411)",3.44649e-07,13194,267,MCE,Merced Regional Macready Field,-120.5139999,37.28469849
411,"(1, 1, 412)",2.32722e-07,15601,438,VIS,Visalia Municipal Airport,-119.392997742,36.3186988831
412,"(1, 1, 413)",2.3250999999999998e-07,11531,134,ELD,South Arkansas Regional At Goodwin Field,-92.81330108642578,33.22100067138672
413,"(1, 1, 414)",1.7849499999999998e-07,11615,142,EWB,New Bedford Regional Airport,-70.95690155029297,41.67610168457031
414,"(1, 1, 415)",1.1651400000000001e-07,12177,190,HOB,Lea County Regional Airport,-103.21700290000001,32.6875
415,"(1, 1, 416)",1.16099e-07,12319,208,ILE,Skylark Field,-97.6865005493,31.0858001709
416,"(1, 1, 417)",1.1516899999999999e-07,12917,245,LCK,Rickenbacker International Airport,-82.927803,39.813801
417,"(1, 1, 418)",0.0,10744,62,BRL,Southeast Iowa Regional Airport,-91.12550354003906,40.783199310302734
